PC_time_stamp,cmd_steering,cmd_v,path_target_point_index,utm_x,utm_y,GPSWeek,GPSTime,Heading,Pitch,Roll,gyro_x,gyro_y,gyro_z,acc_x,acc_y,acc_z,Latitude,Longitude,Altitude,Ve,Vn,Vu,V,NSV1,NSV2,Status,Age,Warming,path_x_y_file,target_speed,Kp,threshold_distance
1630553910.7019594,0,0,1,488233.5264887285,4466142.9509996,2173,358728.68,272.76,-0.02,2.6,0.2,-0.55,0.01,-0.0342,-0.0012,1.0035,40.34575455,116.86145294,70.64,0.004,-0.019,-0.002,0.02,29,29,42,1,2.0
1630553911.2094054,0,0,1,488233.5264887285,4466142.9509996,2173,358728.7,272.76,-0.02,2.61,0.03,-0.17,0.01,-0.0548,0.0017,0.997,40.34575455,116.86145294,70.64,0.001,-0.012,-0.0,0.012,29,29,42,1,2.0
1630553911.7188919,0,0,1,488233.52648699086,4466142.949889631,2173,358729.21,272.76,-0.02,2.62,-0.14,0.27,-0.05,-0.061,0.0003,0.9987,40.34575454,116.86145294,70.64,-0.002,-0.001,0.002,0.002,29,29,42,1,2.0
1630553912.2289078,0,0,1,488233.5256377125,4466142.949890961,2173,358729.72,272.76,-0.02,2.62,-0.18,0.62,-0.06,-0.0505,-0.0018,1.0067,40.34575454,116.86145293,70.64,-0.002,0.008,0.005,0.009,29,29,42,1,2.0
1630553912.731865,0,0,1,488233.5247884364,4466142.949892291,2173,358730.23,272.76,-0.03,2.63,0.01,0.34,0.07,-0.0325,-0.0039,1.0126,40.34575454,116.86145292,70.65,0.001,0.003,0.01,0.004,29,29,42,1,2.0
1630553913.2399745,0,0,1,488233.5256394502,4466142.95100093,2173,358730.73,272.76,-0.03,2.63,-0.02,-0.17,0.0,-0.0518,-0.0005,0.9952,40.34575455,116.86145293,70.65,-0.002,-0.005,0.003,0.005,29,29,42,1,2.0
1630553913.7490432,0,0,1,488233.5256411878,4466142.9521109,2173,358731.24,272.76,-0.03,2.63,-0.2,0.32,-0.01,-0.0592,0.0014,0.9929,40.34575456,116.86145293,70.65,-0.005,0.008,0.007,0.009,29,29,42,1,2.0
1630553914.2537034,0,0,1,488233.52649220376,4466142.953219539,2173,358731.75,272.75,-0.03,2.64,-0.14,0.6,0.01,-0.0505,0.0041,1.0002,40.34575457,116.86145294,70.66,-0.0,0.016,0.011,0.016,29,29,42,1,2.0
1630553914.7605088,0,0,1,488233.5264974166,4466142.956549447,2173,358732.25,272.75,-0.03,2.64,0.25,-0.67,0.01,-0.0428,0.0005,0.9928,40.3457546,116.86145294,70.66,0.003,-0.01,0.003,0.01,29,29,42,1,2.0
1630553915.2703762,0,0,1,488233.5264991543,4466142.957659416,2173,358732.76,272.77,-0.03,2.63,0.05,-0.25,0.01,-0.0531,-0.0019,0.9974,40.34575461,116.86145294,70.66,-0.0,-0.001,0.004,0.001,29,29,42,1,2.0
1630553915.7791822,0,0,1,488233.52564813837,4466142.956550776,2173,358733.27,272.77,-0.03,2.63,-0.16,0.21,-0.07,-0.0631,-0.0039,0.9957,40.3457546,116.86145293,70.66,-0.005,0.009,0.005,0.011,29,29,42,1,2.0
1630553916.289227,0,0,1,488233.52480059984,4466142.957662076,2173,358733.78,272.77,-0.03,2.63,-0.25,0.54,-0.05,-0.0576,0.0009,0.9983,40.34575461,116.86145292,70.66,-0.007,0.018,0.008,0.019,29,29,42,1,2.0
1630553916.7921062,0,0,1,488233.52480233746,4466142.958772045,2173,358734.29,272.77,-0.03,2.62,-0.16,0.55,-0.0,-0.0415,-0.0001,1.01,40.34575462,116.86145292,70.66,-0.005,0.018,0.01,0.019,29,29,42,1,2.0
1630553917.2999349,0,0,1,488233.52565161366,4466142.958770715,2173,358734.79,272.77,-0.03,2.62,0.18,-0.44,0.08,-0.047,0.0026,0.9912,40.34575462,116.86145293,70.66,0.003,-0.007,0.004,0.008,29,29,42,1,2.0
1630553917.809244,0,0,1,488233.5256533513,4466142.9598806845,2173,358735.3,272.77,-0.03,2.62,-0.06,0.0,0.03,-0.0579,-0.0012,1.0022,40.34575463,116.86145293,70.66,-0.003,0.004,0.003,0.005,29,29,42,1,2.0
1630553918.3134286,0,0,1,488233.5256533513,4466142.9598806845,2173,358735.81,272.77,-0.03,2.62,-0.31,0.45,-0.09,-0.0598,-0.0014,1.0023,40.34575463,116.86145293,70.66,-0.009,0.015,0.002,0.017,29,29,42,1,2.0
1630553918.8208709,0,0,1,488233.5265008919,4466142.958769386,2173,358736.31,272.76,-0.03,2.61,0.27,-0.54,0.06,-0.037,-0.003,1.0043,40.34575462,116.86145294,70.66,0.004,-0.009,0.004,0.01,29,29,42,1,2.0
1630553919.3297741,0,0,1,488233.5264991543,4466142.957659416,2173,358736.82,272.76,-0.03,2.61,0.24,-0.51,-0.02,-0.0465,0.0002,0.9997,40.34575461,116.86145294,70.66,0.003,-0.009,0.003,0.009,29,29,42,1,2.0
1630553919.8394513,0,0,1,488233.52735016803,4466142.958768057,2173,358737.33,272.76,-0.02,2.61,-0.02,-0.12,0.05,-0.0533,-0.0013,0.9924,40.34575462,116.86145295,70.67,-0.001,-0.0,0.003,0.001,29,29,42,1,2.0
1630553920.3494685,0,0,1,488233.5281994442,4466142.958766727,2173,358737.84,272.76,-0.02,2.61,-0.15,0.35,-0.03,-0.0567,-0.0016,0.9968,40.34575462,116.86145296,70.67,-0.002,0.01,0.006,0.011,29,29,42,1,2.0
1630553920.852187,0,0,1,488233.52905045793,4466142.959875367,2173,358738.35,272.76,-0.03,2.63,0.03,-0.33,0.0,-0.0529,-0.0056,1.0033,40.34575463,116.86145297,70.67,0.002,-0.007,0.006,0.008,29,29,42,1,2.0
1630553921.3618155,0,0,1,488233.523954799,4466142.959883343,2173,358738.85,272.76,-0.0,2.63,0.15,-0.14,-0.21,-0.0449,0.0226,0.9922,40.34575463,116.86145291,70.67,-0.037,0.006,0.004,0.037,29,29,42,1,2.0
1630553921.8695328,0,0,1,488233.43734075245,4466142.96778874,2173,358739.36,272.79,0.31,2.66,1.03,0.17,-0.21,-0.0331,0.1545,0.9757,40.3457547,116.86145189,70.67,-0.406,0.048,0.017,0.409,29,29,42,1,2.0
1630553922.3796387,0,0,1,488232.99325598986,4466143.023982561,2173,358739.87,272.96,0.21,3.05,-4.94,1.6,-0.67,-0.0666,-0.0003,0.9883,40.3457552,116.86144666,70.68,-1.358,0.178,0.027,1.369,29,29,42,1,2.0
1630553922.8896387,0,0,1,488232.42430151155,4466143.063722326,2173,358740.38,273.48,-0.21,2.88,-0.35,-0.31,-0.77,-0.0559,-0.0735,0.9218,40.34575555,116.86143996,70.68,-0.947,0.054,0.002,0.949,29,29,42,1,2.0
1630553923.4015703,0,0,1,488231.8833540513,4466143.091208593,2173,358740.89,273.74,-0.08,2.56,-0.92,0.02,-0.56,-0.0538,-0.0092,1.0125,40.34575579,116.86143359,70.69,-1.241,0.1,0.035,1.245,29,29,42,1,2.0
1630553923.9096532,0,0,1,488231.2786813046,4466143.099925157,2173,358741.4,274.41,-0.12,1.62,-0.5,-1.04,-1.37,-0.0142,0.0184,1.0358,40.34575586,116.86142647,70.69,-1.211,0.04,0.003,1.211,29,29,42,1,2.0
1630553924.4199197,0,0,1,488230.6689754704,4466143.148608637,2173,358741.91,274.83,-0.08,1.6,-0.18,2.05,-0.47,-0.0468,0.009,1.0062,40.34575629,116.86141929,70.68,-1.208,0.214,0.02,1.227,29,29,42,1,2.0
1630553924.9233487,0,0,1,488230.0482325266,4466143.199529396,2173,358742.42,275.19,-0.11,1.35,0.51,-3.77,-0.68,-0.0259,0.0446,1.0334,40.34575674,116.86141198,70.68,-1.24,-0.057,-0.048,1.241,29,29,42,1,2.0
1630553925.4323318,0,0,1,488229.3943504237,4466143.239402383,2173,358742.92,275.75,-0.23,1.01,-0.2,-0.36,-0.96,0.0176,-0.0117,1.0324,40.34575709,116.86140428,70.67,-1.317,0.141,0.018,1.324,29,29,42,1,2.0
1630553925.940327,0,0,1,488228.71169548546,4466143.344808835,2173,358743.43,276.04,-0.59,1.57,-0.67,-1.08,-1.6,-0.0807,-0.024,0.9782,40.34575803,116.86139624,70.67,-1.367,0.11,-0.013,1.371,29,29,42,0,2.0
1630553926.4498715,0,0,1,488228.0102660847,4466143.39252621,2173,358743.94,276.74,-0.58,1.12,-0.19,0.07,-0.91,0.0088,-0.0199,1.0126,40.34575845,116.86138798,70.66,-1.392,0.164,-0.015,1.401,29,29,42,1,2.0
1630553926.9533205,0,0,1,488227.3072372358,4466143.503514559,2173,358744.45,276.97,-0.59,1.49,-0.58,-1.34,-0.99,-0.097,-0.0224,1.0137,40.34575944,116.8613797,70.66,-1.412,0.113,-0.02,1.416,29,29,42,0,2.0
1630553927.4618134,0,0,1,488226.61007162725,4466143.562325106,2173,358744.95,277.66,-0.53,0.95,0.13,0.53,-0.5,0.0217,-0.0143,0.9898,40.34575996,116.86137149,70.65,-1.377,0.202,0.008,1.392,29,29,42,1,2.0
1630553927.9699054,0,0,1,488225.90961672604,4466143.689959131,2173,358745.46,277.66,-0.34,1.65,0.5,1.25,0.13,-0.0466,-0.0045,1.0008,40.3457611,116.86136324,70.65,-1.38,0.24,0.01,1.401,29,29,42,0,2.0
1630553928.4799676,0,0,1,488225.19975720654,4466143.777648968,2173,358745.97,277.79,-0.1,1.52,0.49,-1.47,-0.76,0.0313,0.0409,1.015,40.34576188,116.86135488,70.65,-1.416,0.08,-0.009,1.419,29,29,42,1,2.0
1630553928.982773,0,0,1,488224.4364141556,4466143.878742325,2173,358746.48,277.49,-0.46,1.63,0.23,-0.26,0.33,-0.0487,-0.0427,0.9708,40.34576278,116.86134589,70.64,-1.501,0.2,-0.02,1.515,29,29,42,1,2.0
1630553929.4901438,0,0,1,488223.690871148,4466143.957608431,2173,358746.98,277.56,-0.43,1.31,-0.16,0.91,0.47,-0.0071,0.0027,0.9779,40.34576348,116.86133711,70.63,-1.494,0.193,0.005,1.507,29,29,42,1,2.0
1630553930.0000648,0,0,1,488222.9351994506,4466144.076449471,2173,358747.49,277.19,-0.32,1.7,-0.8,-0.68,0.3,-0.0517,0.0189,1.0039,40.34576454,116.86132821,70.63,-1.544,0.133,-0.033,1.549,29,29,42,1,2.0
1630553930.510174,0,0,1,488222.1446604804,4466144.165375983,2173,358748.0,277.12,-0.41,1.63,0.44,0.8,0.53,-0.0095,-0.0028,1.0132,40.34576533,116.8613189,70.63,-1.523,0.219,0.015,1.539,29,29,42,1,2.0
1630553931.0202835,0,0,1,488221.3668798084,4466144.2664922755,2173,358748.51,276.91,-0.16,1.82,-0.4,0.04,0.49,-0.025,0.0063,1.0122,40.34576623,116.86130974,70.63,-1.563,0.169,0.002,1.572,29,29,42,0,2.0
1630553931.5236077,0,0,1,488220.5814626273,4466144.372060504,2173,358749.02,276.63,-0.08,2.08,-0.6,-0.96,0.24,-0.0739,0.0211,0.9551,40.34576717,116.86130049,70.62,-1.567,0.151,-0.026,1.574,29,29,42,1,2.0
1630553932.0320268,0,0,1,488219.76795671816,4466144.4377138475,2173,358749.52,276.72,-0.43,1.58,0.8,0.33,0.2,0.0077,-0.0116,1.0165,40.34576775,116.86129091,70.61,-1.59,0.163,0.005,1.599,29,29,42,0,2.0
1630553932.540281,0,0,1,488218.94603809156,4466144.554439177,2173,358750.03,276.62,-0.48,2.01,-1.34,1.77,0.36,-0.0501,-0.0214,1.0592,40.34576879,116.86128123,70.61,-1.663,0.234,0.026,1.68,29,29,42,1,2.0
1630553933.0502484,0,0,1,488218.11301103776,4466144.627893103,2173,358750.54,276.74,-0.33,1.54,1.41,-1.79,-0.8,0.0123,-0.016,1.0324,40.34576944,116.86127142,70.6,-1.603,0.089,-0.009,1.605,29,29,42,0,2.0
1630553933.5556912,0,0,1,488217.3012646321,4466144.732392973,2173,358751.05,276.7,0.08,1.76,1.08,-0.08,-0.22,-0.0549,0.0086,0.993,40.34577037,116.86126186,70.61,-1.607,0.197,-0.041,1.619,29,29,42,1,2.0
1630553934.061433,0,0,1,488216.4809959004,4466144.818036771,2173,358751.55,276.89,0.21,1.49,-0.45,-0.52,-0.37,-0.0036,0.0413,0.9967,40.34577113,116.8612522,70.6,-1.695,0.177,-0.017,1.704,29,29,42,0,2.0
1630553934.5702796,0,0,1,488215.6115039662,4466144.925957273,2173,358752.06,276.93,-0.08,1.58,-0.83,1.64,0.12,0.0117,0.0184,0.9929,40.34577209,116.86124196,70.59,-1.707,0.252,-0.005,1.726,29,29,42,1,2.0
1630553935.0803294,0,0,1,488214.75730947376,4466145.040513722,2173,358752.57,276.82,-0.11,1.81,-0.2,0.74,0.21,-0.0355,0.0223,0.9938,40.34577311,116.8612319,70.6,-1.65,0.194,0.031,1.662,29,29,42,0,2.0
1630553935.583614,0,0,1,488213.9039346917,4466145.136199458,2173,358753.08,276.8,-0.21,1.72,-0.05,1.05,0.51,-0.0018,-0.0273,1.0333,40.34577396,116.86122185,70.6,-1.665,0.218,0.018,1.679,29,29,42,1,2.0
1630553936.0912673,0,0,1,488213.08029156644,4466145.236278553,2173,358753.58,276.55,0.05,1.76,0.92,-1.3,-0.27,-0.0751,-0.0136,1.0256,40.34577485,116.86121215,70.59,-1.65,0.121,-0.005,1.654,29,29,42,0,2.0
1630553936.6003945,0,0,1,488212.23453246185,4466145.314192983,2173,358754.09,276.38,0.4,1.47,0.36,1.38,0.87,-0.0234,0.0072,1.0414,40.34577554,116.86120219,70.58,-1.695,0.243,0.031,1.712,29,29,42,1,2.0
1630553937.1104538,0,0,1,488211.3667496413,4466145.42877113,2173,358754.6,275.74,0.25,1.97,-0.88,0.36,1.64,-0.0486,0.0209,1.0553,40.34577656,116.86119197,70.59,-1.735,0.177,0.007,1.744,29,29,42,0,2.0
1630553937.6124296,0,0,1,488210.4853105265,4466145.500081887,2173,358755.11,275.29,0.04,1.75,-1.31,0.22,1.01,0.0075,0.0025,0.9752,40.34577719,116.86118159,70.59,-1.765,0.137,-0.02,1.771,29,29,42,1,2.0
1630553938.121107,0,0,1,488209.6132204291,4466145.575817971,2173,358755.61,274.16,-0.32,2.02,-0.19,0.24,3.14,-0.0551,-0.0102,0.9503,40.34577786,116.86117132,70.59,-1.714,0.092,-0.006,1.716,29,29,42,0,2.0
1630553938.6306646,0,0,1,488208.7512398266,4466145.599369616,2173,358756.12,272.21,-0.22,2.16,-0.36,0.69,4.24,-0.0308,0.0114,0.978,40.34577806,116.86116117,70.59,-1.698,0.001,-0.028,1.698,29,29,42,1,2.0
1630553939.1406884,0,0,1,488207.9010672484,4466145.570734153,2173,358756.63,269.78,-0.17,2.13,-0.07,-0.24,5.4,-0.07,0.0096,1.0275,40.34577779,116.86115116,70.58,-1.639,-0.126,-0.028,1.644,29,29,42,0,2.0
1630553939.6523004,0,0,1,488207.0473913257,4466145.474395992,2173,358757.14,266.5,-0.57,1.97,-1.09,-0.44,7.18,-0.0545,0.0006,0.9947,40.34577691,116.86114111,70.56,-1.681,-0.259,-0.063,1.701,29,29,42,1,2.0
1630553940.1607141,0,0,1,488206.2301332433,4466145.313622413,2173,358757.65,262.35,-0.62,1.91,0.51,1.22,9.53,-0.0413,-0.0103,1.0169,40.34577545,116.86113149,70.55,-1.52,-0.326,0.013,1.555,29,29,42,1,2.0
1630553940.6707165,0,0,1,488205.48747210245,4466145.063934109,2173,358758.16,256.98,-0.09,1.67,0.12,-2.47,10.43,-0.1085,0.0358,1.0046,40.34577319,116.86112275,70.54,-1.474,-0.698,-0.076,1.631,29,29,42,1,2.0
1630553941.1740077,0,0,1,488204.7302303779,4466144.723251058,2173,358758.67,251.75,-0.03,1.51,-1.13,0.09,10.66,-0.0676,-0.0024,1.0365,40.34577011,116.86111384,70.52,-1.526,-0.663,-0.035,1.664,29,29,42,1,2.0
1630553941.68254,0,0,1,488203.98143605876,4466144.353695555,2173,358759.17,247.83,-0.26,1.07,-0.1,-2.04,5.72,-0.0762,-0.0046,0.9679,40.34576677,116.86110503,70.52,-1.446,-0.858,-0.067,1.682,29,29,42,1,2.0
1630553942.1911902,0,0,1,488203.197659311,4466143.88096764,2173,358759.68,245.31,-0.84,-0.14,4.24,-0.54,2.15,0.0046,-0.0959,1.0014,40.3457625,116.86109581,70.48,-1.392,-0.76,0.109,1.586,29,29,42,1,2.0
1630553942.7008793,0,0,1,488202.4402832138,4466143.454817193,2173,358760.19,244.08,-0.69,-0.55,-0.87,0.05,0.91,-0.0046,-0.02,0.8908,40.34575865,116.8610869,70.47,-1.559,-0.823,0.033,1.763,29,29,42,1,2.0
1630553943.2059326,0,0,1,488201.6302013526,4466142.996560365,2173,358760.7,243.76,-0.89,-1.45,2.37,-3.96,-2.77,-0.0318,-0.0494,0.8806,40.34575451,116.86107737,70.46,-1.559,-0.957,-0.073,1.829,29,29,42,1,2.0
1630553943.7114599,0,0,1,488200.8193432997,4466142.584923668,2173,358761.2,244.82,-0.17,-1.85,-0.51,0.96,0.1,-0.0139,-0.0408,0.9856,40.34575079,116.86106783,70.45,-1.694,-0.682,0.047,1.826,29,29,42,1,2.0
1630553944.2209983,0,0,1,488199.9753546549,4466142.167789211,2173,358761.71,245.24,-0.69,-1.94,-1.76,1.0,1.25,0.147,-0.0005,1.1189,40.34574702,116.8610579,70.43,-1.707,-0.757,-0.053,1.867,29,29,42,1,2.0
1630553944.7309906,0,0,1,488199.1501249415,4466141.798354188,2173,358762.22,246.63,-0.34,-2.14,0.29,-1.44,-3.19,0.145,0.0097,1.1176,40.34574368,116.86104819,70.43,-1.507,-0.765,0.014,1.69,29,29,42,1,2.0
1630553945.2339745,0,0,1,488198.3412631992,4466141.576519825,2173,358762.73,246.75,-0.75,-0.08,0.56,3.82,-0.52,-0.115,-0.1059,1.0169,40.34574167,116.86103867,70.48,-1.42,-0.365,0.089,1.467,29,29,42,1,2.0
1630553945.7410169,0,0,1,488197.7396406284,4466141.364349879,2173,358763.23,248.05,-0.44,0.32,1.27,0.42,-3.01,-0.0115,0.0482,0.9846,40.34573975,116.86103159,70.5,-1.097,-0.398,0.002,1.167,29,29,42,1,2.0
1630553946.251034,0,0,1,488197.113307073,4466141.100050104,2173,358763.74,250.35,0.5,-0.68,3.44,0.5,-7.11,0.0946,0.0481,1.0244,40.34573736,116.86102422,70.48,-1.325,-0.488,-0.078,1.412,29,29,42,1,2.0
1630553946.7537599,0,0,1,488196.3682472873,4466140.945824052,2173,358764.25,252.77,0.96,0.15,-0.85,8.04,-3.28,0.0418,-0.0045,1.053,40.34573596,116.86101545,70.49,-1.578,0.014,0.119,1.578,29,29,42,1,2.0
1630553947.2629383,0,0,1,488195.64020090085,4466140.809330907,2173,358764.75,255.28,0.98,0.53,-1.81,0.92,-5.36,0.0995,0.0593,1.0154,40.34573472,116.86100688,70.5,-1.554,-0.335,0.053,1.589,29,29,42,1,2.0
1630553947.771252,0,0,1,488194.8535997111,4466140.701789068,2173,358765.26,258.23,0.65,0.96,-0.39,-1.17,-6.13,-0.0464,-0.0292,0.9348,40.34573374,116.86099762,70.52,-1.435,-0.238,0.007,1.455,29,29,42,1,2.0
1630553948.2811604,0,0,1,488194.10271519795,4466140.624160453,2173,358765.77,260.84,0.5,1.06,-0.74,0.21,-5.12,-0.0081,0.0107,0.9759,40.34573303,116.86098878,70.52,-1.526,-0.088,-0.004,1.529,29,28,42,1,2.0
1630553948.783466,0,0,1,488193.32973378175,4466140.536576877,2173,358766.28,263.25,0.37,0.56,-0.15,-0.84,-4.61,0.029,0.0188,1.0514,40.34573223,116.86097968,70.52,-1.527,-0.15,0.004,1.534,29,28,42,1,2.0
1630553949.2912602,0,0,1,488192.5441160696,4466140.514501576,2173,358766.78,264.99,0.18,0.77,-0.9,-0.51,-1.92,-0.0569,-0.0118,1.0139,40.34573202,116.86097043,70.53,-1.569,-0.067,0.01,1.571,29,28,42,1,2.0
1630553949.801261,0,0,1,488191.74746821553,4466140.499103518,2173,358767.29,266.27,0.14,0.97,-0.31,-0.86,-2.7,0.0027,0.0168,0.9923,40.34573187,116.86096105,70.54,-1.573,-0.025,0.016,1.574,29,28,42,1,2.0
1630553950.30425,0,0,1,488190.9278933717,4466140.485961509,2173,358767.8,267.82,-0.12,0.86,-0.05,-0.03,-3.6,0.0025,0.0009,1.0107,40.34573174,116.8609514,70.54,-1.605,0.01,-0.015,1.605,29,28,42,1,2.0
1630553950.8114727,0,0,1,488190.1270793545,4466140.521628878,2173,358768.3,269.91,-0.06,1.1,0.09,-0.3,-4.83,0.0051,0.0232,1.0235,40.34573205,116.86094197,70.55,-1.621,0.085,0.005,1.623,29,28,42,1,2.0
1630553951.3214643,0,0,1,488189.2838363838,4466140.579562441,2173,358768.81,272.35,-0.3,1.07,-0.54,0.47,-5.06,0.0026,-0.0166,1.0174,40.34573256,116.86093204,70.54,-1.683,0.202,-0.005,1.695,29,28,42,1,2.0
1630553951.831455,0,0,1,488188.4168782124,4466140.678602329,2173,358769.32,275.39,-0.8,0.88,-0.46,-1.76,-5.08,0.0364,-0.0397,1.0214,40.34573344,116.86092183,70.54,-1.684,0.172,-0.001,1.693,29,28,42,1,2.0
1630553952.3336594,0,0,1,488187.58988143,4466140.806438788,2173,358769.83,278.02,-0.64,0.51,-0.45,-0.35,-7.31,0.0038,0.019,1.0026,40.34573458,116.86091209,70.53,-1.673,0.363,-0.024,1.712,29,28,42,1,2.0
1630553952.8431993,0,0,1,488186.7510750486,4466140.985352607,2173,358770.33,281.24,-0.73,-0.09,1.24,-2.64,-4.77,0.0002,-0.0541,0.9125,40.34573618,116.86090221,70.51,-1.598,0.301,-0.048,1.626,29,28,42,1,2.0
1630553953.3524752,0,0,1,488185.94369369117,4466141.165327097,2173,358770.84,283.76,-0.18,-0.88,0.78,0.8,-5.51,0.0924,0.0174,0.9265,40.34573779,116.8608927,70.49,-1.568,0.542,-0.024,1.659,29,28,42,1,2.0
1630553953.861537,0,0,1,488185.15100656246,4466141.508444453,2173,358771.35,286.36,0.1,0.47,-0.54,-0.35,-3.38,-0.0274,0.0526,1.0625,40.34574087,116.86088336,70.5,-1.636,0.578,-0.061,1.735,29,28,42,1,2.0
1630553954.3715646,0,0,1,488184.305674819,4466141.858304484,2173,358771.86,287.9,-0.54,1.58,-1.58,2.27,-4.48,-0.064,-0.0349,1.0174,40.34574401,116.8608734,70.5,-1.699,0.771,0.018,1.865,29,29,42,1,2.0
1630553954.8831565,0,0,1,488183.46363904735,4466142.143781055,2173,358772.37,289.54,-0.41,1.02,1.7,-2.4,-4.25,-0.0015,0.0218,0.964,40.34574657,116.86086348,70.5,-1.631,0.499,-0.032,1.705,29,29,42,1,2.0
1630553955.3932703,0,0,1,488182.7117209012,4466142.489054519,2173,358772.88,290.93,-0.06,1.45,0.99,-0.01,-3.48,-0.1246,-0.0219,0.9921,40.34574967,116.86085462,70.5,-1.357,0.637,-0.021,1.499,28,28,42,1,2.0
1630553955.901667,0,0,1,488181.930833176,4466142.774435126,2173,358773.39,293.32,-0.04,0.14,-0.78,-2.24,-2.89,0.1275,0.0025,0.9835,40.34575223,116.86084542,70.46,-1.639,0.646,-0.066,1.761,29,28,42,1,2.0
1630553956.4116414,0,0,1,488181.14839007787,4466143.150835956,2173,358773.9,294.84,-0.06,0.23,-1.62,-0.88,-4.53,-0.033,0.0403,1.0748,40.34575561,116.8608362,70.45,-1.644,0.738,-0.04,1.802,29,28,42,1,2.0
1630553956.914131,0,0,1,488180.3234657755,4466143.516203956,2173,358774.41,295.52,-0.84,-0.13,0.6,1.72,1.38,0.0739,-0.0291,1.0163,40.34575889,116.86082648,70.44,-1.418,0.775,0.024,1.616,29,28,42,1,2.0
1630553957.4217854,0,0,1,488179.6149535282,4466143.920237986,2173,358774.91,294.86,-0.78,1.07,0.28,0.91,0.65,-0.1044,-0.0298,0.9433,40.34576252,116.86081813,70.45,-1.461,0.723,-0.016,1.63,29,28,42,1,2.0
1630553957.9317408,0,0,1,488178.832418142,4466144.237810693,2173,358775.42,294.88,-0.47,0.4,0.55,-0.65,0.74,0.0576,-0.0171,1.0021,40.34576537,116.86080891,70.43,-1.521,0.675,-0.033,1.664,29,28,42,1,2.0
1630553958.4418797,0,0,1,488178.09832300193,4466144.575286786,2173,358775.93,294.36,0.36,0.47,1.36,0.1,0.02,-0.0355,0.0256,0.9995,40.3457684,116.86080026,70.43,-1.468,0.659,-0.053,1.61,29,28,42,1,2.0
1630553958.9526472,0,0,1,488177.2733448791,4466144.906246075,2173,358776.44,294.85,-0.1,-0.29,-2.56,-1.21,-0.78,0.0356,-0.0125,1.0082,40.34577137,116.86079054,70.4,-1.726,0.703,-0.065,1.864,29,28,42,0,2.0
1630553959.4618933,0,0,1,488176.4576495037,4466145.199451806,2173,358776.95,293.46,-0.07,-0.96,0.27,-1.45,2.82,-0.0209,0.0009,1.0698,40.345774,116.86078093,70.38,-1.612,0.567,-0.071,1.709,29,28,42,1,2.0
1630553959.9772716,0,0,1,488175.62576730247,4466145.460493905,2173,358777.46,291.3,-0.28,-1.34,-0.54,0.22,5.58,0.0281,0.0009,0.9811,40.34577634,116.86077113,70.39,-1.629,0.522,0.006,1.71,29,29,42,0,2.0
1630553960.483209,0,0,1,488174.8100266447,4466145.724840615,2173,358777.97,288.59,-0.17,-0.76,0.17,3.37,6.62,0.002,0.03,0.9763,40.34577871,116.86076152,70.4,-1.592,0.564,0.006,1.69,29,29,42,1,2.0
1630553960.9920561,0,0,1,488174.00022050267,4466145.9825182455,2173,358778.48,284.76,0.39,0.46,0.74,1.83,7.7,-0.0868,0.044,1.1314,40.34578102,116.86075198,70.4,-1.625,0.452,-0.039,1.687,29,29,42,0,2.0
1630553961.5020247,0,0,1,488173.1027258818,4466146.104917361,2173,358778.99,282.02,0.61,-0.03,-1.49,-2.08,5.82,0.0163,0.0391,0.9954,40.34578211,116.86074141,70.39,-1.937,0.178,-0.047,1.945,29,29,42,1,2.0
1630553962.013435,0,0,1,488172.1415460548,4466146.234076634,2173,358779.5,279.14,0.24,-0.04,-0.3,0.73,3.15,-0.0287,-0.002,0.9246,40.34578326,116.86073009,70.39,-1.889,0.284,-0.017,1.91,29,29,42,0,2.0
1630553962.5220366,0,0,1,488171.1718542832,4466146.3510397365,2173,358780.01,278.25,0.23,-0.11,0.01,-0.83,1.55,0.005,0.0034,0.936,40.3457843,116.86071867,70.39,-1.916,0.238,-0.035,1.931,29,29,42,1,2.0
1630553963.0321114,0,0,1,488170.1978864616,4466146.449140168,2173,358780.52,277.58,0.29,-0.33,0.91,-0.7,0.99,0.0016,0.0266,1.0214,40.34578517,116.8607072,70.39,-1.93,0.175,-0.042,1.938,29,29,42,0,2.0
1630553963.542145,0,0,1,488169.2009864601,4466146.546166851,2173,358781.03,276.81,0.18,-0.45,0.08,0.1,1.74,0.0197,0.0132,1.0055,40.34578603,116.86069546,70.39,-1.95,0.22,-0.008,1.962,29,29,42,1,2.0
1630553964.046633,0,0,1,488168.2032057591,4466146.623215558,2173,358781.54,275.87,-0.02,-0.53,-0.96,1.28,3.48,0.0036,0.0134,1.0495,40.34578671,116.86068371,70.38,-1.974,0.167,-0.016,1.981,29,29,42,0,2.0
1630553964.5522869,0,0,1,488167.21300565434,4466146.660293471,2173,358782.04,273.51,-0.57,-0.31,-0.74,0.3,4.98,0.0216,-0.0013,0.9895,40.34578703,116.86067205,70.38,-1.997,0.026,-0.032,1.997,29,29,42,1,2.0
1630553965.0622287,0,0,1,488166.20829970745,4466146.654105446,2173,358782.55,270.97,-0.73,-0.02,-0.56,1.76,5.17,0.0068,-0.0198,0.9885,40.34578696,116.86066022,70.37,-1.973,-0.004,-0.005,1.973,29,29,42,0,2.0
1630553965.5721848,0,0,1,488165.2384193257,4466146.651192639,2173,358783.06,268.76,-0.32,0.92,1.21,0.75,3.52,-0.0361,-0.0174,1.0132,40.34578692,116.8606488,70.38,-1.878,-0.07,-0.036,1.88,29,29,42,1,2.0
1630553966.0833187,0,0,1,488164.29895907245,4466146.550554519,2173,358783.57,265.64,0.21,0.79,0.07,0.82,8.15,-0.0413,0.0234,1.0396,40.345786,116.86063774,70.37,-1.861,-0.225,-0.007,1.875,29,29,42,0,2.0
1630553966.5924032,0,0,1,488163.33054299484,4466146.398903405,2173,358784.08,261.71,-0.28,0.53,-2.31,-2.05,6.86,-0.0951,-0.0165,0.9656,40.34578462,116.86062634,70.37,-1.966,-0.415,-0.049,2.009,29,29,42,1,2.0
1630553967.1023467,0,0,1,488162.37041161285,4466146.115152701,2173,358784.59,259.4,-0.51,-1.15,-0.44,-6.13,3.6,-0.0401,-0.0026,1.0147,40.34578205,116.86061504,70.36,-1.859,-0.767,-0.138,2.011,29,29,42,0,2.0
1630553967.614377,0,0,1,488161.4467833031,4466145.821354879,2173,358785.1,257.17,-0.19,-1.73,3.23,2.37,5.16,0.0258,-0.0922,1.0446,40.34577939,116.86060417,70.35,-1.627,-0.326,0.025,1.659,29,29,42,1,2.0
1630553968.1224835,0,0,1,488160.6847079918,4466145.648289641,2173,358785.61,254.58,0.0,-0.38,-0.08,1.21,4.52,-0.0171,-0.0405,1.0797,40.34577782,116.8605952,70.37,-1.343,-0.35,0.024,1.388,29,29,42,0,2.0
1630553968.6324365,0,0,1,488159.9794764574,4466145.43850586,2173,358786.12,252.3,-0.32,0.31,-3.41,0.95,6.11,-0.0284,-0.0082,0.9838,40.34577592,116.8605869,70.39,-1.551,-0.564,-0.054,1.65,29,29,42,1,2.0
1630553969.1443772,0,0,1,488159.2188810487,4466145.126691941,2173,358786.63,250.38,-0.67,0.05,1.65,-0.45,1.98,0.033,-0.0556,1.0459,40.3457731,116.86057795,70.38,-1.401,-0.603,0.062,1.525,29,29,42,0,2.0
1630553969.6525514,0,0,1,488158.54157586826,4466144.853595897,2173,358787.14,248.53,-0.21,0.43,0.39,1.47,4.16,-0.0559,-0.0467,0.924,40.34577063,116.86056998,70.41,-1.25,-0.521,0.049,1.355,29,29,42,1,2.0
1630553970.1625638,0,0,1,488157.9363926774,4466144.538207348,2173,358787.65,246.7,-0.09,-0.03,0.89,-0.6,2.79,-0.0184,-0.0281,0.939,40.34576778,116.86056286,70.41,-1.105,-0.625,-0.011,1.27,28,28,42,1,2.0
1630553970.6726518,0,0,1,488157.3898304988,4466144.2360461475,2173,358788.16,245.27,0.23,-0.17,-0.39,2.56,3.4,0.064,-0.0199,1.0174,40.34576505,116.86055643,70.39,-1.13,-0.443,-0.001,1.214,28,28,42,1,2.0
1630553971.1845853,0,0,1,488156.8408078937,4466143.989387463,2173,358788.67,244.26,0.22,0.22,-0.23,-0.02,0.56,0.0114,0.0128,0.9977,40.34576282,116.86054997,70.39,-1.113,-0.559,0.054,1.246,29,28,42,1,2.0
1630553971.6925786,0,0,1,488156.240776194,4466143.709510037,2173,358789.18,243.64,-0.16,0.56,-0.5,1.22,0.93,-0.0627,-0.034,0.9855,40.34576029,116.86054291,70.42,-1.194,-0.561,0.084,1.319,29,28,42,1,2.0
1630553972.2026868,0,0,1,488155.6789863787,4466143.445112002,2173,358789.69,243.88,0.5,0.77,1.0,0.82,1.13,-0.0424,0.0608,1.0105,40.3457579,116.8605363,70.45,-1.078,-0.5,0.055,1.188,29,28,42,1,2.0
1630553972.7127671,0,0,1,488155.0839662863,4466143.111948118,2173,358790.2,243.98,0.07,0.03,-2.04,-0.71,-0.78,0.0367,0.0016,0.9893,40.34575489,116.8605293,70.43,-1.25,-0.683,-0.043,1.425,29,28,42,1,2.0
1630553973.2227437,0,0,1,488154.46436784934,4466142.8110122,2173,358790.71,244.59,0.05,-0.09,0.92,-0.37,-2.64,-0.0003,-0.048,1.0118,40.34575217,116.86052201,70.42,-1.163,-0.538,-0.017,1.282,29,29,42,1,2.0
1630553973.7327886,0,0,1,488153.86193158437,4466142.622156456,2173,358791.22,245.02,0.06,1.13,-0.5,0.47,-2.22,-0.1203,0.0227,1.0192,40.34575046,116.86051492,70.44,-1.186,-0.418,0.05,1.258,29,29,42,1,2.0
1630553974.2428803,0,0,1,488153.2092794984,4466142.364561644,2173,358791.73,246.47,-0.5,1.08,-1.51,-0.83,-3.02,0.0138,-0.0412,1.0052,40.34574813,116.86050724,70.44,-1.36,-0.515,-0.008,1.455,29,29,42,1,2.0
1630553974.7467265,0,0,1,488152.5192854373,4466142.12367533,2173,358792.24,248.73,-1.12,0.81,-0.73,0.06,-5.16,0.0188,-0.028,1.0228,40.34574595,116.86049912,70.46,-1.336,-0.425,0.017,1.402,29,29,42,1,2.0
1630553975.2528687,0,0,1,488151.8879404158,4466141.913775843,2173,358792.74,251.79,-0.77,0.1,1.24,-2.88,-6.95,0.0013,0.0088,1.0946,40.34574405,116.86049169,70.44,-1.222,-0.468,-0.044,1.309,29,29,42,1,2.0
1630553975.7628636,0,0,1,488151.24983089056,4466141.722756596,2173,358793.25,254.63,-0.4,-0.7,-0.31,2.02,-4.6,0.0546,0.011,0.9893,40.34574232,116.86048418,70.43,-1.363,-0.144,0.052,1.37,29,29,42,1,2.0
1630553976.2731295,0,0,1,488150.5532454814,4466141.610637602,2173,358793.76,257.37,-0.37,-0.6,0.28,-0.3,-5.96,0.0427,0.0264,0.9818,40.3457413,116.86047598,70.44,-1.402,-0.234,0.003,1.421,29,29,42,1,2.0
1630553976.782999,0,0,1,488149.7989197275,4466141.505269538,2173,358794.27,260.4,-0.55,-0.72,0.38,0.3,-6.23,0.0303,-0.0219,0.9774,40.34574034,116.8604671,70.43,-1.488,-0.144,-0.009,1.495,29,29,42,1,2.0
1630553977.2930782,0,0,1,488149.0582453858,4466141.439839018,2173,358794.78,263.53,-0.17,-0.83,0.81,0.48,-6.45,0.0601,0.0062,0.9828,40.34573974,116.86045838,70.42,-1.46,-0.047,-0.01,1.461,29,29,42,1,2.0
1630553977.8030393,0,0,1,488148.2862528051,4466141.44105627,2173,358795.29,266.71,-0.19,-0.44,-0.64,1.43,-5.95,-0.0072,0.0077,1.0234,40.34573974,116.86044929,70.42,-1.558,0.081,0.016,1.561,29,29,42,1,2.0
1630553978.3143294,0,0,1,488147.4922280365,4466141.473387561,2173,358795.8,269.86,-0.34,-0.33,-0.08,-0.24,-5.01,0.0379,-0.0311,0.9914,40.34574002,116.86043994,70.41,-1.53,0.111,0.013,1.534,29,29,42,1,2.0
1630553978.8230462,0,0,1,488146.73140559084,4466141.556725285,2173,358796.31,272.61,-0.01,-0.06,0.74,-0.82,-5.96,0.0152,-0.0033,0.9842,40.34574076,116.86043098,70.42,-1.488,0.107,0.005,1.492,29,29,42,1,2.0
1630553979.3330693,0,0,1,488145.9680265756,4466141.63451726,2173,358796.82,275.46,0.09,-0.44,0.79,-1.94,-5.9,0.0325,0.0049,0.9873,40.34574145,116.86042199,70.42,-1.466,0.177,0.018,1.477,29,29,42,1,2.0
1630553979.843103,0,0,1,488145.2208661179,4466141.764452414,2173,358797.33,278.6,0.35,-0.5,-0.15,0.74,-6.3,0.071,0.0249,1.0127,40.34574261,116.86041319,70.42,-1.477,0.353,0.045,1.518,29,29,42,1,2.0
1630553980.354602,0,0,1,488144.47210692574,4466141.957658567,2173,358797.84,281.56,0.37,-0.06,-0.39,2.73,-5.35,0.0285,0.0341,1.0326,40.34574434,116.86040437,70.44,-1.461,0.487,0.066,1.54,29,29,42,1,2.0
1630553980.8631265,0,0,1,488143.70473371964,4466142.195293035,2173,358798.35,284.31,-0.08,0.13,-0.41,-1.04,-5.04,0.0451,-0.006,0.9928,40.34574647,116.86039533,70.45,-1.511,0.429,0.001,1.57,29,29,42,1,2.0
1630553981.3733146,0,0,1,488142.9688310781,4466142.462847181,2173,358798.86,286.82,0.03,0.46,0.27,0.41,-4.81,-0.037,0.0025,1.0106,40.34574887,116.86038666,70.45,-1.427,0.573,0.011,1.538,29,29,42,1,2.0
1630553981.885021,0,0,1,488142.23464455013,4466142.741498411,2173,358799.37,289.1,-0.02,0.37,0.06,-0.66,-4.69,0.0179,-0.0211,1.0218,40.34575137,116.86037801,70.45,-1.424,0.575,0.019,1.536,29,29,42,1,2.0
1630553982.3932838,0,0,1,488141.49708198645,4466143.033474703,2173,358799.88,292.01,-0.15,-0.33,-1.28,-1.29,-7.17,0.0806,0.0403,1.0004,40.34575399,116.86036932,70.45,-1.504,0.649,0.01,1.638,29,29,42,1,2.0
1630553982.9033272,0,0,1,488140.75032980455,4466143.422033131,2173,358800.39,294.76,-0.69,-0.16,2.19,1.01,-3.0,-0.0266,-0.0663,1.0116,40.34575748,116.86036052,70.44,-1.211,0.709,0.038,1.403,29,29,42,1,2.0
1630553983.4136627,0,0,1,488140.1266404727,4466143.758228766,2173,358800.9,296.8,0.17,-0.15,0.72,-1.76,-2.86,-0.0002,0.0183,0.9855,40.3457605,116.86035317,70.45,-1.32,0.604,0.018,1.452,29,29,42,1,2.0
1630553983.9239035,0,0,1,488139.45798158256,4466144.121134743,2173,358801.41,298.19,0.05,-0.42,-0.39,-0.49,-3.52,-0.0013,0.0202,0.9928,40.34576376,116.86034529,70.46,-1.321,0.787,0.005,1.538,29,29,42,1,2.0
1630553984.4334216,0,0,1,488138.8012704305,4466144.520651002,2173,358801.92,299.5,0.31,-0.19,0.89,3.28,-1.35,-0.0098,-0.0157,1.08,40.34576735,116.86033755,70.43,-1.182,0.874,0.046,1.47,29,29,42,1,2.0
1630553984.9457247,0,0,1,488138.20495781896,4466144.983340403,2173,358802.43,300.24,0.24,1.27,-1.65,-1.54,-3.08,-0.1716,0.0688,1.035,40.34577151,116.86033052,70.45,-1.355,0.815,0.003,1.581,29,29,42,0,2.0
1630553985.4534726,0,0,1,488137.4029960286,4466145.367546407,2173,358802.94,302.93,-1.25,-0.99,-0.2,-3.67,-2.47,0.1578,-0.1103,0.9841,40.34577496,116.86032107,70.4,-1.405,0.71,0.051,1.574,29,29,42,1,2.0
1630553985.9689505,0,0,1,488136.85845613724,4466145.809064736,2173,358803.45,303.13,-0.8,0.12,2.96,1.73,-0.1,-0.059,-0.0607,0.93,40.34577893,116.86031465,70.43,-0.873,0.762,0.056,1.159,29,29,42,0,2.0
1630553986.4738882,0,0,1,488136.30282841227,4466146.220631363,2173,358803.96,304.64,-0.22,0.19,-1.61,-0.93,-3.26,0.0057,0.0249,1.0649,40.34578263,116.8603081,70.43,-1.331,0.928,-0.028,1.622,29,29,42,1,2.0
1630553986.983544,0,0,1,488135.66485775256,4466146.655637423,2173,358804.47,305.73,-0.15,-0.44,1.01,-0.07,-1.5,0.0414,0.0105,0.9655,40.34578654,116.86030058,70.41,-1.159,0.881,-0.025,1.456,29,29,42,0,2.0
1630553987.4891171,0,0,1,488135.0923953221,4466147.162688304,2173,358804.98,306.63,0.26,0.51,0.52,4.82,-1.8,-0.0926,0.0132,1.1014,40.3457911,116.86029383,70.39,-1.126,1.059,0.009,1.546,29,29,42,1,2.0
1630553987.9970908,0,0,1,488134.42566858046,4466147.673217957,2173,358805.49,307.22,-0.66,0.58,-5.34,3.27,-1.09,0.0589,0.0343,1.0083,40.34579569,116.86028597,70.4,-1.346,1.263,0.071,1.846,29,29,42,0,2.0
1630553988.5047832,0,0,1,488133.8337115121,4466148.204719098,2173,358806.0,307.55,-0.7,1.32,-1.11,0.77,1.08,-0.0533,-0.0146,0.9156,40.34580047,116.86027899,70.41,-1.146,0.837,-0.025,1.419,29,29,42,1,2.0
1630553989.0137787,0,0,1,488133.2619058278,4466148.589672164,2173,358806.5,307.22,-0.7,0.69,0.45,-0.92,1.35,-0.0112,-0.0118,0.9841,40.34580393,116.86027225,70.4,-1.095,0.743,-0.041,1.323,29,29,42,0,2.0
1630553989.5196805,0,0,1,488132.6738886027,4466148.926922076,2173,358807.01,305.79,-0.38,-0.36,0.51,-0.27,2.58,0.0227,0.0141,1.1001,40.34580696,116.86026532,70.37,-1.176,0.665,0.002,1.351,29,29,42,1,2.0
1630553990.0252814,0,0,1,488132.0892772973,4466149.269716517,2173,358807.52,303.66,-0.09,-0.42,0.45,5.16,6.76,0.0998,0.013,0.9165,40.34581004,116.86025843,70.37,-1.02,0.838,0.042,1.321,29,29,42,0,2.0
1630553990.533819,0,0,1,488131.5455241766,4466149.671275003,2173,358808.02,300.19,-0.28,1.34,-1.07,-2.17,3.32,-0.2312,0.0195,0.8792,40.34581365,116.86025202,70.38,-1.351,0.524,-0.007,1.449,29,29,42,1,2.0
1630553991.0438654,0,0,1,488130.753596785,4466149.955568398,2173,358808.53,297.78,-1.07,-0.1,-4.32,3.26,7.77,0.0809,-0.1345,0.8643,40.3458162,116.86024269,70.35,-1.497,0.902,-0.008,1.748,29,29,42,0,2.0
1630553991.549553,0,0,1,488130.1230546373,4466150.254036645,2173,358809.04,295.2,-1.14,0.29,0.46,-2.24,3.43,-0.0067,-0.0238,1.034,40.34581888,116.86023526,70.34,-1.15,0.273,-0.013,1.182,29,29,42,1,2.0
1630553992.056851,0,0,1,488129.49147744605,4466150.434849547,2173,358809.55,292.81,-1.66,-0.26,0.42,0.7,4.53,0.0329,-0.0871,1.0018,40.3458205,116.86022782,70.33,-1.181,0.41,0.05,1.25,29,29,42,0,2.0
1630553992.563935,0,0,1,488128.94228879636,4466150.62108224,2173,358810.05,289.9,-1.19,0.28,-0.42,-0.92,6.84,-0.0032,0.0313,1.0314,40.34582217,116.86022135,70.35,-1.194,0.311,-0.005,1.234,29,29,42,1,2.0
1630553993.0739062,0,0,1,488128.3378709538,4466150.790752624,2173,358810.56,286.78,-1.14,0.74,0.7,1.58,6.11,-0.0211,-0.0167,0.9845,40.34582369,116.86021423,70.36,-1.171,0.331,0.016,1.217,29,29,42,0,2.0
1630553993.5839906,0,0,1,488127.73855756037,4466150.965964855,2173,358811.07,283.65,-0.76,1.78,0.14,3.06,6.08,-0.0419,0.0289,1.0251,40.34582526,116.86020717,70.37,-1.206,0.371,0.018,1.262,29,29,42,1,2.0
1630553994.0940094,0,0,1,488127.0848537318,4466151.117953637,2173,358811.58,281.38,-0.77,2.31,3.58,-0.88,2.35,-0.1037,-0.0654,0.9839,40.34582662,116.86019947,70.36,-1.134,0.149,0.093,1.143,29,29,42,0,2.0
1630553994.604006,0,0,1,488126.4199690665,4466151.181162382,2173,358812.09,279.36,-0.23,1.61,-2.74,1.69,4.78,-0.0026,-0.025,0.9083,40.34582718,116.86019164,70.35,-1.532,0.314,0.018,1.564,29,29,42,1,2.0
1630553995.1140733,0,0,1,488125.745863378,4466151.320973818,2173,358812.6,276.5,0.14,2.26,1.43,1.17,5.86,-0.0755,0.0104,1.0245,40.34582843,116.8601837,70.34,-1.216,0.217,-0.01,1.235,29,29,42,0,2.0
1630553995.627032,0,0,1,488125.05886250234,4466151.362018182,2173,358813.11,274.98,0.03,1.91,-0.66,-2.22,2.04,-0.0225,0.0124,0.985,40.34582879,116.86017561,70.32,-1.441,0.002,-0.051,1.441,29,29,42,1,2.0
1630553996.1347284,0,0,1,488124.33959617646,4466151.407553477,2173,358813.62,273.94,-0.07,1.73,-0.31,-2.02,0.25,-0.0896,-0.0252,0.9534,40.34582919,116.86016714,70.32,-1.42,-0.0,-0.004,1.42,29,29,42,0,2.0
1630553996.6441755,0,0,1,488123.60325840465,4466151.398727185,2173,358814.13,273.75,-0.12,0.81,0.11,-0.66,0.52,-0.0234,-0.0043,0.9612,40.3458291,116.86015847,70.31,-1.504,0.083,-0.013,1.506,29,29,42,1,2.0
1630553997.1541538,0,0,1,488122.84659238876,4466151.424342222,2173,358814.64,273.56,0.05,0.53,0.53,-0.81,0.24,0.0047,-0.0021,0.9853,40.34582932,116.86014956,70.29,-1.486,0.033,-0.017,1.487,29,29,42,1,2.0
1630553997.659474,0,0,1,488122.0942148563,4466151.476589886,2173,358815.15,273.25,0.27,0.83,-0.38,1.2,0.67,-0.032,0.0375,0.9405,40.34582978,116.8601407,70.29,-1.525,0.13,0.005,1.531,29,29,42,1,2.0
1630553998.1649737,0,0,1,488121.2883189334,4466151.52004243,2173,358815.66,273.18,0.39,0.9,-0.2,-0.51,-0.41,-0.0411,0.0392,0.9863,40.34583016,116.86013121,70.28,-1.68,0.051,-0.024,1.681,29,29,42,1,2.0
1630553998.6742473,0,0,1,488120.4314682371,4466151.564685567,2173,358816.16,273.07,0.08,1.03,0.33,-0.28,0.36,-0.0504,0.0095,0.9968,40.34583055,116.86012112,70.28,-1.699,0.093,-0.016,1.702,29,29,42,1,2.0
1630553999.1804342,0,0,1,488119.5499692562,4466151.59715807,2173,358816.67,273.22,0.11,0.84,-1.13,-0.3,-0.46,0.0115,0.003,1.0296,40.34583083,116.86011074,70.28,-1.802,0.072,0.034,1.803,29,29,42,2,2.0
1630553999.6875107,0,0,1,488118.6353871349,4466151.654102359,2173,358817.18,273.33,0.08,0.99,0.8,0.37,-0.09,-0.0294,-0.0044,1.0274,40.34583133,116.86009997,70.28,-1.78,0.092,-0.016,1.783,29,29,42,1,2.0
1630554000.1943383,0,0,1,488117.6902205796,4466151.704435278,2173,358817.69,273.36,-0.17,1.0,-0.24,0.66,-0.51,-0.0548,-0.0101,0.9897,40.34583177,116.86008884,70.27,-1.881,0.136,-0.01,1.886,29,29,42,1,2.0
1630554000.7043703,0,0,1,488116.7628730274,4466151.744750394,2173,358818.19,273.89,-0.03,0.64,-0.34,0.43,-0.18,0.0867,-0.0049,1.0448,40.34583212,116.86007792,70.26,-1.837,0.146,0.013,1.843,29,29,42,1,2.0
1630554001.2102392,0,0,1,488115.81605883833,4466151.827275341,2173,358818.7,274.13,-0.08,0.86,0.32,-0.65,-1.49,0.0306,0.0042,1.0121,40.34583285,116.86006677,70.26,-1.863,0.115,0.016,1.867,29,29,42,1,2.0
1630554001.7173104,0,0,1,488114.87942719983,4466151.904234447,2173,358819.21,274.34,0.04,0.88,-0.36,2.04,-0.33,0.0221,-0.0091,0.9376,40.34583353,116.86005574,70.26,-1.81,0.239,0.0,1.826,29,29,42,1,2.0
1630554002.2248106,0,0,1,488113.985292709,4466152.002215932,2173,358819.72,274.05,0.07,1.46,-0.03,-0.16,0.57,-0.0859,0.0374,0.9483,40.3458344,116.86004521,70.26,-1.761,0.105,-0.011,1.764,29,29,42,1,2.0
1630554002.7311327,0,0,1,488113.0842832884,4466152.049149686,2173,358820.22,273.4,0.04,1.32,0.03,1.44,1.58,-0.0286,-0.0272,1.0629,40.34583481,116.8600346,70.26,-1.799,0.156,-0.005,1.805,29,29,42,1,2.0
1630554003.2386408,0,0,1,488112.1696837146,4466152.0949950665,2173,358820.73,272.44,0.02,1.31,-0.56,-0.28,2.04,-0.0373,0.0184,1.0711,40.34583521,116.86002383,70.26,-1.808,0.017,0.003,1.808,29,29,42,1,2.0
1630554003.744871,0,0,1,488111.2507657881,4466152.095338539,2173,358821.24,271.32,-0.02,0.99,-0.45,-0.67,2.06,-0.0261,0.0207,1.007,40.3458352,116.86001301,70.26,-1.819,-0.026,0.005,1.819,29,29,42,1,2.0
1630554004.254741,0,0,1,488110.33692420006,4466152.0834644,2173,358821.74,269.95,-0.41,0.73,-0.66,-1.47,2.12,-0.0559,-0.0412,0.9979,40.34583508,116.86000225,70.25,-1.837,-0.073,-0.017,1.838,29,29,42,1,2.0
1630554004.7593312,0,0,1,488109.41881516145,4466152.058277462,2173,358822.25,269.45,-0.43,0.35,0.78,0.14,2.87,-0.023,0.0035,0.9752,40.34583484,116.85999144,70.24,-1.737,-0.043,0.022,1.738,29,29,42,1,2.0
1630554005.2674787,0,0,1,488108.5321468743,4466152.044140611,2173,358822.76,268.08,0.05,0.9,0.44,1.75,2.79,0.0027,-0.0024,1.021,40.3458347,116.859981,70.24,-1.733,-0.026,-0.014,1.733,29,29,42,1,2.0
1630554005.7748501,0,0,1,488107.6454153571,4466151.990044973,2173,358823.27,266.22,-0.03,1.1,0.18,0.99,4.24,0.0292,-0.0063,0.967,40.3458342,116.85997056,70.23,-1.749,-0.096,-0.02,1.752,29,29,42,1,2.0
1630554006.2848973,0,0,1,488106.77561664965,4466151.902623484,2173,358823.77,264.62,0.19,0.93,-0.07,-2.23,2.07,-0.0572,0.0393,1.0552,40.3458334,116.85996032,70.23,-1.763,-0.34,-0.014,1.795,29,29,42,1,2.0
1630554006.7897902,0,0,1,488105.8785919198,4466151.784165964,2173,358824.28,262.93,0.36,0.98,0.81,2.02,4.01,-0.053,-0.0029,1.0179,40.34583232,116.85994976,70.24,-1.741,-0.167,0.027,1.749,29,29,42,1,2.0
1630554007.299077,0,0,1,488104.9798282064,4466151.640181949,2173,358824.79,260.58,0.23,1.19,-1.41,0.11,3.82,-0.0217,0.0055,0.9735,40.34583101,116.85993918,70.24,-1.829,-0.334,0.03,1.859,29,29,42,1,2.0
1630554007.8059976,0,0,1,488104.10048360965,4466151.424019124,2173,358825.3,258.78,0.37,0.62,1.66,-2.85,4.01,-0.0136,0.0443,1.0152,40.34582905,116.85992883,70.24,-1.655,-0.543,-0.021,1.741,29,29,42,1,2.0
1630554008.315017,0,0,1,488103.20838577196,4466151.19899681,2173,358825.8,256.7,-0.12,0.49,-1.03,0.37,3.86,-0.0641,-0.002,0.9427,40.34582701,116.85991833,70.24,-1.776,-0.482,-0.019,1.84,29,29,42,1,2.0
1630554008.8206973,0,0,1,488102.3128380669,4466150.940680902,2173,358826.31,255.2,-0.17,0.37,1.01,0.01,2.97,-0.0239,-0.0078,1.0061,40.34582467,116.85990779,70.23,-1.701,-0.472,-0.02,1.766,29,29,42,1,2.0
1630554009.3291585,0,0,1,488101.43578986893,4466150.565788758,2173,358826.82,253.01,-1.02,-0.89,-5.65,-0.11,4.52,0.0639,-0.0304,1.0101,40.34582128,116.85989747,70.2,-1.923,-0.742,-0.091,2.061,29,29,42,1,2.0
1630554009.8352346,0,0,1,488100.6124269518,4466150.305138836,2173,358827.33,251.5,-0.09,-0.4,1.29,1.6,5.38,0.0256,0.0221,0.9627,40.34581892,116.85988778,70.21,-1.533,-0.542,0.023,1.626,29,29,42,1,2.0
1630554010.3451366,0,0,1,488099.8416769048,4466150.017766378,2173,358827.83,247.36,0.06,1.02,-2.02,2.35,9.99,-0.0978,0.047,1.0044,40.34581632,116.85987871,70.22,-1.58,-0.77,-0.084,1.757,29,29,42,1,2.0
1630554010.8509085,0,0,1,488099.1038376532,4466149.597145246,2173,358828.34,242.91,0.39,0.99,0.44,-2.56,9.2,-0.0582,0.0907,1.0384,40.34581252,116.85987003,70.2,-1.324,-0.898,-0.044,1.6,29,29,42,1,2.0
1630554011.3585627,0,0,1,488098.4117361903,4466149.098753721,2173,358828.85,238.57,0.16,0.3,-2.19,-1.37,8.46,-0.0181,0.0451,0.9428,40.34580802,116.85986189,70.23,-1.346,-1.091,-0.059,1.733,29,29,42,1,2.0
1630554011.8651214,0,0,1,488097.7424438048,4466148.523738071,2173,358829.36,234.16,-0.69,-0.06,0.47,3.19,7.06,-0.0062,-0.2026,1.0465,40.34580283,116.85985402,70.18,-1.274,-1.058,-0.061,1.656,29,29,42,1,2.0
1630554012.3751447,0,0,1,488097.25924296177,4466148.011696188,2173,358829.86,229.94,0.39,-0.64,-1.48,2.91,9.81,0.0826,0.0032,1.0815,40.34579821,116.85984834,70.18,-1.144,-1.034,-0.041,1.542,29,29,42,1,2.0
1630554012.8802705,0,0,1,488096.76591754064,4466147.541849305,2173,358830.37,225.64,0.23,0.15,-2.37,-0.21,6.08,-0.0521,0.0118,1.1091,40.34579397,116.85984254,70.21,-0.957,-1.074,0.025,1.438,29,29,42,1,2.0
1630554013.3873603,0,0,1,488096.26147060154,4466147.020961356,2173,358830.88,222.01,-0.04,1.72,-4.38,4.89,11.82,0.0158,-0.0689,1.1131,40.34578927,116.85983661,70.21,-1.184,-1.092,-0.089,1.611,29,29,42,1,2.0
1630554013.8952904,0,0,1,488095.94986379007,4466146.534177154,2173,358831.38,219.7,0.79,0.42,3.4,-7.51,1.15,0.0134,0.0477,1.0839,40.34578488,116.85983295,70.22,-0.155,-1.084,-0.032,1.095,29,29,42,1,2.0
1630554014.4014306,0,0,1,488095.66275233997,4466145.962996297,2173,358831.89,216.59,-0.11,-0.82,2.07,-0.55,4.12,-0.1585,-0.1651,0.9481,40.34577973,116.85982958,70.21,-0.586,-0.903,0.08,1.077,29,29,42,1,2.0
1630554014.9093037,0,0,1,488095.5304148292,4466145.521437037,2173,358832.4,214.73,0.51,-2.35,2.6,4.24,7.24,0.2576,0.0989,0.9316,40.34577575,116.85982803,70.18,-0.449,-0.544,0.005,0.705,29,29,42,1,2.0
1630554015.415368,0,0,1,488095.19351597264,4466145.152349958,2173,358832.91,211.77,-0.08,-0.21,0.21,2.0,5.67,-0.0275,-0.0053,1.0673,40.34577242,116.85982407,70.21,-0.415,-0.837,0.005,0.934,29,29,42,1,2.0
1630554015.9219744,0,0,1,488094.921046053,4466144.709902693,2173,358833.41,208.91,0.36,1.17,-2.08,-2.11,4.06,-0.1471,-0.0343,1.1265,40.34576843,116.85982087,70.22,-0.498,-1.124,0.062,1.229,29,29,42,1,2.0
1630554016.4309087,0,0,1,488094.7426383291,4466144.136329749,2173,358833.92,206.32,-0.61,0.07,-3.78,0.29,5.02,0.0751,0.0765,0.8199,40.34576326,116.85981878,70.24,-0.522,-1.262,-0.019,1.366,29,29,42,1,2.0
1630554016.9381068,0,0,1,488094.5361939052,4466143.556141388,2173,358834.43,202.48,-0.63,0.18,-0.52,-5.41,6.55,-0.0655,0.0765,1.0538,40.34575803,116.85981636,70.24,-0.084,-1.246,-0.096,1.249,29,29,42,0,2.0
1630554017.4454906,0,0,1,488094.4009163821,4466142.867063048,2173,358834.94,199.12,-0.86,-0.75,1.43,-1.03,7.2,-0.068,-0.0478,1.0373,40.34575182,116.85981478,70.21,-0.213,-1.215,-0.03,1.233,29,29,42,1,2.0
1630554017.9555707,0,0,1,488094.2878800234,4466142.278956934,2173,358835.44,195.97,-0.9,-0.7,-4.29,1.86,3.8,0.0331,0.0206,1.1266,40.34574652,116.85981346,70.19,-0.375,-1.297,-0.017,1.35,29,29,42,0,2.0
1630554018.4655864,0,0,1,488094.1094968117,4466141.7209235765,2173,358835.95,193.47,-0.72,0.67,0.07,3.37,6.2,-0.0311,0.0008,0.8546,40.34574149,116.85981137,70.21,-0.363,-1.021,0.011,1.083,29,29,42,1,2.0
1630554018.9755962,0,0,1,488094.07108072966,4466141.059441114,2173,358836.46,192.27,-0.9,-0.97,2.31,-4.47,0.79,0.075,0.0488,1.0504,40.34573553,116.85981093,70.19,0.092,-1.372,-0.089,1.375,29,29,42,0,2.0
1630554019.4792125,0,0,1,488093.9613025277,4466140.383642056,2173,358836.97,189.27,-0.54,-0.29,-0.59,3.61,6.36,-0.1127,-0.148,1.0826,40.34572944,116.85980965,70.18,-0.333,-1.19,0.135,1.236,29,29,42,1,2.0
1630554019.9858143,0,0,1,488093.9145395936,4466139.814300495,2173,358837.48,187.23,-0.21,0.01,2.0,0.9,2.94,0.082,0.007,0.8496,40.34572431,116.85980911,70.19,-0.147,-1.112,0.063,1.122,29,29,42,0,2.0
1630554020.4955935,0,0,1,488093.8754728918,4466139.278245902,2173,358837.98,185.76,0.42,-0.19,3.43,-4.0,2.13,-0.0345,-0.0375,1.0513,40.34571948,116.85980866,70.19,0.155,-0.845,-0.04,0.859,29,29,42,1,2.0
1630554021.0056384,0,0,1,488093.8603090234,4466138.819851486,2173,358838.49,185.29,0.6,-0.3,-1.3,1.89,1.21,0.0211,0.0519,1.0245,40.34571535,116.85980849,70.19,-0.216,-0.999,0.032,1.022,29,29,42,0,2.0
1630554021.5100753,0,0,1,488093.8051658282,4466138.321561408,2173,358839.0,184.41,0.54,0.06,1.18,-1.71,0.81,0.0049,-0.0274,0.9529,40.34571086,116.85980785,70.2,0.04,-0.918,-0.032,0.919,29,29,42,1,2.0
1630554022.0178163,0,0,1,488093.76027021784,4466137.858774202,2173,358839.51,183.52,1.11,0.57,-0.0,1.3,1.15,-0.1045,0.024,1.1591,40.34570669,116.85980733,70.21,-0.149,-0.943,0.023,0.955,29,29,42,0,2.0
1630554022.5259085,0,0,1,488093.78924941586,4466137.3881001705,2173,358840.01,183.41,1.23,-0.5,-2.33,-1.21,1.37,0.1092,0.1248,0.9325,40.34570245,116.85980768,70.21,0.025,-1.088,-0.033,1.088,29,29,42,1,2.0
1630554023.031759,0,0,1,488093.7588038199,4466136.933059879,2173,358840.52,182.88,1.08,-0.27,0.33,-0.17,1.87,-0.0022,-0.0858,0.972,40.34569835,116.85980733,70.22,-0.019,-0.563,0.044,0.563,28,28,42,0,2.0
1630554023.539288,0,0,1,488093.7593911166,4466136.767673122,2173,358841.03,182.97,0.98,-0.35,-0.78,-0.6,-0.31,0.0368,-0.0964,0.9938,40.34569686,116.85980734,70.22,0.013,-0.066,-0.023,0.067,28,28,42,1,2.0
1630554024.0460987,0,0,1,488093.7645817265,4466136.827603388,2173,358841.54,182.8,1.1,-0.32,0.15,-0.19,0.14,0.0017,0.0202,1.0005,40.3456974,116.8598074,70.22,0.016,0.163,-0.004,0.164,29,28,42,0,2.0
1630554024.5558782,0,0,1,488093.7680685078,4466136.884206436,2173,358842.04,182.75,1.14,-0.3,0.14,0.13,-0.25,0.0038,0.0457,0.9964,40.34569791,116.85980744,70.22,0.003,0.077,0.001,0.077,29,28,42,1,2.0
1630554025.062083,0,0,1,488093.76978991897,4466136.898633345,2173,358842.55,182.75,1.12,-0.31,-0.04,0.24,-0.09,0.0126,0.0219,1.0095,40.34569804,116.85980746,70.22,-0.006,0.007,0.008,0.009,29,28,42,0,2.0
1630554025.569657,0,0,1,488093.7689388839,4466136.89752472,2173,358843.06,182.75,1.11,-0.31,-0.11,-0.12,0.01,0.014,0.0187,1.0075,40.34569803,116.85980745,70.22,0.001,0.011,-0.001,0.011,29,28,42,1,2.0
1630554026.077873,0,0,1,488093.768089607,4466136.897526066,2173,358843.57,182.74,1.11,-0.32,-0.08,-0.32,0.05,0.0088,0.0178,0.9985,40.34569803,116.85980744,70.22,0.006,0.01,-0.002,0.012,29,29,42,0,2.0
